{
    "type": "FeatureCollection",
    "name": "Islay distilleries",
    "features": [
        {
            "type": "Feature",
            "properties": { "Name": "Laphroaig" },
            "geometry": { "type": "Point", "coordinates": [ -6.151372, 55.629767, 0.0 ] }
        },
        {
            "type": "Feature",
            "properties": { "Name": "Lagavulin" },
            "geometry": { "type": "Point", "coordinates": [ -6.126068, 55.635351, 0.0 ] }
        },
        {
            "type": "Feature",
            "properties": { "Name": "Ardbeg" },
            "geometry": { "type": "Point", "coordinates": [ -6.108407, 55.640223, 0.0 ] }
        },
        {
            "type": "Feature",
            "properties": { "Name": "Caol Ila" },
            "geometry": { "type": "Point", "coordinates": [ -6.109432, 55.854286, 0.0 ] }
        },
        {
            "type": "Feature",
            "properties": { "Name": "Bunnahabhain" },
            "geometry": { "type": "Point", "coordinates": [ -6.125613, 55.882647, 0.0 ] }
        },
        {
            "type": "Feature",
            "properties": { "Name": "Bowmore" },
            "geometry": { "type": "Point", "coordinates": [ -6.289595, 55.756909, 0.0 ] }
        },
        {
            "type": "Feature",
            "properties": { "Name": "Bruichladdich" },
            "geometry": { "type": "Point", "coordinates": [ -6.362137, 55.766117, 0.0 ] }
        },
        {
            "type": "Feature",
            "properties": { "Name": "Kilchoman" },
            "geometry": { "type": "Point", "coordinates": [ -6.430689, 55.786789, 0.0 ] }
        },
        {
            "type": "Feature",
            "properties": { "Name": "Port Ellen" },
            "geometry": { "type": "Point", "coordinates": [ -6.196201, 55.633805, 0.0 ] }
        }
    ]
}
